{
  "mode": "coordinate-based",
  "inspection": "coordinate-based",
  "turnaround_index": 11,
  "view_box": {
    "width": 1000,
    "height": 680
  },
  "bbox": {
    "min_lng": 100.20284,
    "max_lng": 100.875362,
    "min_lat": 26.872997,
    "max_lat": 27.7450575
  },
  "aspect_ratio": 0.6857,
  "source_counts": {
    "exact": 18,
    "cached": 0,
    "estimated": 0,
    "fallback": 0
  },
  "label_count": 6,
  "hidden_label_count": 12,
  "points": [
    {
      "order": 1,
      "name": "丽江古城-文昌宫观景台",
      "time": "2025:12:30 19:19:17",
      "photo_count": 2,
      "caption": "第一站：旅程开始",
      "poi": "",
      "lat": 26.872997,
      "lng": 100.232095,
      "normalized_x": 0.0435,
      "normalized_y": 1.0,
      "x": 329.71,
      "y": 612.0,
      "confidence": "exact",
      "show_label": true,
      "label_position": "right-top"
    },
    {
      "order": 2,
      "name": "清真寺(北门坡)",
      "time": "2025:12:30 19:59:05",
      "photo_count": 1,
      "caption": "中间站：沿途停留",
      "poi": "",
      "lat": 26.878179,
      "lng": 100.234916,
      "normalized_x": 0.0477,
      "normalized_y": 0.9941,
      "x": 340.28,
      "y": 615.77,
      "confidence": "exact",
      "show_label": false,
      "label_position": "right"
    },
    {
      "order": 3,
      "name": "雪洛轻奢·日照金山丨设计师民宿SnowMountainSceneryVilla",
      "time": "2025:12:31 10:39:47",
      "photo_count": 1,
      "caption": "中间站：沿途停留",
      "poi": "",
      "lat": 26.958873,
      "lng": 100.21876,
      "normalized_x": 0.0237,
      "normalized_y": 0.9015,
      "x": 322.32,
      "y": 558.43,
      "confidence": "exact",
      "show_label": true,
      "label_position": "right"
    },
    {
      "order": 4,
      "name": "为山而来观景民宿(白沙古镇店)",
      "time": "2025:12:31 11:00:21",
      "photo_count": 1,
      "caption": "中间站：沿途停留",
      "poi": "",
      "lat": 26.960691,
      "lng": 100.219201,
      "normalized_x": 0.0243,
      "normalized_y": 0.8994,
      "x": 331.56,
      "y": 564.3,
      "confidence": "exact",
      "show_label": false,
      "label_position": "right"
    },
    {
      "order": 5,
      "name": "向阳",
      "time": "2025:12:31 11:34:39",
      "photo_count": 1,
      "caption": "中间站：沿途停留",
      "poi": "",
      "lat": 26.963704,
      "lng": 100.219134,
      "normalized_x": 0.0242,
      "normalized_y": 0.896,
      "x": 340.53,
      "y": 569.42,
      "confidence": "exact",
      "show_label": false,
      "label_position": "right"
    },
    {
      "order": 6,
      "name": "玉龙纳西族自治县白沙镇幼儿园",
      "time": "2025:12:31 12:00:24",
      "photo_count": 3,
      "caption": "中间站：沿途停留",
      "poi": "",
      "lat": 26.9575033,
      "lng": 100.2163493,
      "normalized_x": 0.0201,
      "normalized_y": 0.9031,
      "x": 342.98,
      "y": 577.28,
      "confidence": "exact",
      "show_label": false,
      "label_position": "right"
    },
    {
      "order": 7,
      "name": "清溪公园",
      "time": "2025:12:31 13:31:18",
      "photo_count": 1,
      "caption": "中间站：沿途停留",
      "poi": "",
      "lat": 26.902913,
      "lng": 100.230203,
      "normalized_x": 0.0407,
      "normalized_y": 0.9657,
      "x": 350.66,
      "y": 611.34,
      "confidence": "exact",
      "show_label": false,
      "label_position": "right"
    },
    {
      "order": 8,
      "name": "树底",
      "time": "2025:12:31 16:20:19",
      "photo_count": 1,
      "caption": "中间站：沿途停留",
      "poi": "",
      "lat": 26.995613,
      "lng": 100.433438,
      "normalized_x": 0.3429,
      "normalized_y": 0.8594,
      "x": 441.39,
      "y": 535.51,
      "confidence": "exact",
      "show_label": true,
      "label_position": "top"
    },
    {
      "order": 9,
      "name": "泸沽湖国家级风景名胜区-洛洼南古村落",
      "time": "2026:01:01 07:48:03",
      "photo_count": 2,
      "caption": "中间站：沿途停留",
      "poi": "",
      "lat": 27.687681,
      "lng": 100.8331165,
      "normalized_x": 0.9372,
      "normalized_y": 0.0658,
      "x": 663.08,
      "y": 103.79,
      "confidence": "exact",
      "show_label": true,
      "label_position": "left"
    },
    {
      "order": 10,
      "name": "直玛次尔亭",
      "time": "2026:01:01 08:07:02",
      "photo_count": 1,
      "caption": "中间站：沿途停留",
      "poi": "",
      "lat": 27.700737,
      "lng": 100.835257,
      "normalized_x": 0.9404,
      "normalized_y": 0.0508,
      "x": 673.27,
      "y": 102.65,
      "confidence": "exact",
      "show_label": false,
      "label_position": "left"
    },
    {
      "order": 11,
      "name": "官地花海码头",
      "time": "2026:01:01 08:34:05",
      "photo_count": 1,
      "caption": "中间站：沿途停留",
      "poi": "",
      "lat": 27.677815,
      "lng": 100.8294,
      "normalized_x": 0.9317,
      "normalized_y": 0.0771,
      "x": 679.02,
      "y": 123.95,
      "confidence": "exact",
      "show_label": false,
      "label_position": "left"
    },
    {
      "order": 12,
      "name": "泸沽湖景区-雍仲林寺(喇塔贡巴)",
      "time": "2026:01:01 09:13:13",
      "photo_count": 2,
      "caption": "中间站：沿途停留",
      "poi": "",
      "lat": 27.713895,
      "lng": 100.875362,
      "normalized_x": 1.0,
      "normalized_y": 0.0357,
      "x": 704.51,
      "y": 101.44,
      "confidence": "exact",
      "show_label": true,
      "label_position": "left"
    },
    {
      "order": 13,
      "name": "泸沽湖风景名胜区出水洞",
      "time": "2026:01:01 10:28:37",
      "photo_count": 2,
      "caption": "中间站：沿途停留",
      "poi": "",
      "lat": 27.7450575,
      "lng": 100.7810655,
      "normalized_x": 0.8598,
      "normalized_y": 0.0,
      "x": 634.21,
      "y": 68.0,
      "confidence": "exact",
      "show_label": false,
      "label_position": "left"
    },
    {
      "order": 14,
      "name": "小洛水(建设中)",
      "time": "2026:01:01 10:44:25",
      "photo_count": 1,
      "caption": "中间站：沿途停留",
      "poi": "",
      "lat": 27.743071,
      "lng": 100.768959,
      "normalized_x": 0.8418,
      "normalized_y": 0.0023,
      "x": 636.49,
      "y": 76.24,
      "confidence": "exact",
      "show_label": false,
      "label_position": "left"
    },
    {
      "order": 15,
      "name": "次第花开客栈(泸沽湖大落水店)",
      "time": "2026:01:01 12:10:48",
      "photo_count": 1,
      "caption": "中间站：沿途停留",
      "poi": "",
      "lat": 27.683493,
      "lng": 100.766737,
      "normalized_x": 0.8385,
      "normalized_y": 0.0706,
      "x": 626.26,
      "y": 106.4,
      "confidence": "exact",
      "show_label": false,
      "label_position": "left"
    },
    {
      "order": 16,
      "name": "茶马古道博物馆",
      "time": "2026:01:02 10:31:32",
      "photo_count": 1,
      "caption": "中间站：沿途停留",
      "poi": "",
      "lat": 26.92391,
      "lng": 100.20284,
      "normalized_x": 0.0,
      "normalized_y": 0.9416,
      "x": 335.49,
      "y": 598.24,
      "confidence": "exact",
      "show_label": false,
      "label_position": "right"
    },
    {
      "order": 17,
      "name": "丽江束河塘舍精品客栈",
      "time": "2026:01:02 12:32:37",
      "photo_count": 1,
      "caption": "中间站：沿途停留",
      "poi": "",
      "lat": 26.927677,
      "lng": 100.203007,
      "normalized_x": 0.0002,
      "normalized_y": 0.9373,
      "x": 335.58,
      "y": 595.89,
      "confidence": "exact",
      "show_label": false,
      "label_position": "right"
    },
    {
      "order": 18,
      "name": "丽江市博物院",
      "time": "2026:01:02 15:23:21",
      "photo_count": 1,
      "caption": "最后一站：路线收尾",
      "poi": "",
      "lat": 26.8861,
      "lng": 100.233536,
      "normalized_x": 0.0456,
      "normalized_y": 0.985,
      "x": 352.51,
      "y": 621.83,
      "confidence": "exact",
      "show_label": true,
      "label_position": "right-top"
    }
  ]
}